City_ID,City,Lat,Lng,Max Temp,Humidity,Cloudiness,Wind Speed,Country,Date
0,ushuaia,-54.8,-68.3,37.06,75,0,4.61,AR,1624756183
1,ola,59.5833,151.2833,59.72,78,40,7.05,RU,1624755636
2,bluff,-46.6,168.3333,51.8,87,89,13.8,NZ,1624756183
3,kapaa,22.0752,-159.319,85.98,73,90,3.0,US,1624756183
4,mount gambier,-37.8333,140.7667,55.08,82,27,3.24,AU,1624756184
5,port alfred,-33.5906,26.891,55.31,77,100,9.84,ZA,1624756017
6,kaitangata,-46.2817,169.8464,50.97,81,100,4.72,NZ,1624756184
7,busselton,-33.65,115.3333,57.04,72,100,29.12,AU,1624756184
8,san quintin,30.4833,-115.95,68.54,71,0,17.72,MX,1624756185
9,ratnagiri,16.9833,73.3,79.95,79,100,4.05,IN,1624756185
10,lorengau,-2.0226,147.2712,84.47,71,33,5.79,PG,1624755611
11,miyako,39.6367,141.9525,73.65,71,57,4.43,JP,1624756186
12,saurimo,-9.6608,20.3916,59.41,48,13,5.44,AO,1624756186
13,punta arenas,-53.15,-70.9167,37.51,75,90,12.66,CL,1624755961
14,arlit,18.7369,7.3853,91.8,9,0,15.52,NE,1624756186
15,umm lajj,25.0213,37.2685,84.52,41,85,8.84,SA,1624756187
16,torbay,47.6666,-52.7314,61.75,78,60,11.99,CA,1624755929
17,new norfolk,-42.7826,147.0587,54.9,69,88,3.0,AU,1624756187
18,puerto ayora,-0.7393,-90.3518,72.55,91,6,4.0,EC,1624756188
19,nalut,30.3333,10.85,86.52,13,1,9.71,LY,1624756188
20,hithadhoo,-0.6,73.0833,81.73,74,77,9.37,MV,1624756188
21,smithers,54.7804,-127.1743,92.91,33,0,1.5,CA,1624756189
22,vestmannaeyjar,63.4427,-20.2734,48.0,93,15,6.6,IS,1624756189
23,touros,-5.1989,-35.4608,76.1,77,44,17.05,BR,1624756189
24,mataura,-46.1927,168.8643,51.48,80,99,5.26,NZ,1624756190
25,faanui,-16.4833,-151.75,81.12,74,0,7.38,PF,1624755903
26,barrow,71.2906,-156.7887,50.02,74,20,14.97,US,1624756190
27,surt,31.2089,16.5887,82.81,42,0,6.71,LY,1624756190
28,northam,51.0333,-4.2167,61.39,92,97,13.62,GB,1624755918
29,east london,-33.0153,27.9116,57.34,64,100,6.78,ZA,1624755977
30,gagino,55.2314,45.0339,64.45,86,60,3.27,RU,1624756191
31,ust-nera,64.5667,143.2,79.57,30,13,3.13,RU,1624756191
32,atuona,-9.8,-139.0333,78.76,67,7,21.12,PF,1624756192
33,dalbandin,28.8947,64.4101,82.65,14,0,6.98,PK,1624755614
34,castro,-24.7911,-50.0119,58.15,83,1,4.85,BR,1624756192
35,paamiut,61.994,-49.6678,44.46,97,100,17.22,GL,1624755791
36,hermanus,-34.4187,19.2345,53.91,76,26,10.27,ZA,1624756192
37,guerrero negro,27.9769,-114.0611,67.91,76,23,20.11,MX,1624756193
38,koprivstica,43.2349,22.6205,61.86,92,4,0.85,RS,1624756193
39,vaini,-21.2,-175.2,75.36,73,40,12.66,TO,1624756193
40,ribeira grande,38.5167,-28.7,68.14,79,52,11.25,PT,1624756002
41,avarua,-21.2078,-159.775,75.25,64,75,12.66,CK,1624756194
42,pakxan,18.3778,103.6601,77.85,90,99,0.87,LA,1624756194
43,bengkulu,-3.8004,102.2655,77.07,85,11,3.06,ID,1624756195
44,bac lieu,9.285,105.7244,84.0,70,16,4.94,VN,1624756195
45,hobart,-42.8794,147.3294,55.26,63,40,4.0,AU,1624756008
46,rikitea,-23.1203,-134.9692,74.25,73,4,8.08,PF,1624756195
47,domna,51.8971,113.1573,68.16,64,6,2.24,RU,1624756196
48,kalianget,-7.05,113.9333,83.5,73,88,10.29,ID,1624756196
49,cartagena,10.3997,-75.5144,83.82,74,40,6.91,CO,1624756106
50,cape town,-33.9258,18.4232,56.88,74,18,4.0,ZA,1624755958
51,port elizabeth,-33.918,25.5701,51.1,80,95,7.52,ZA,1624756018
52,yellowknife,62.456,-114.3525,78.57,34,7,18.01,CA,1624756197
53,burnie,-41.0667,145.9167,56.91,66,75,10.58,AU,1624755895
54,sunbury,-37.5833,144.7333,56.7,67,40,12.66,AU,1624756197
55,albany,42.6001,-73.9662,78.75,78,100,7.4,US,1624756063
56,saskylakh,71.9167,114.0833,48.67,49,98,4.27,RU,1624756198
57,sabang,5.8933,95.3214,80.58,78,100,22.44,ID,1624755635
58,vardo,70.3705,31.1107,45.91,87,100,7.56,NO,1624755642
59,mar del plata,-38.0023,-57.5575,51.13,75,0,10.0,AR,1624756198
60,alizai,33.5383,70.3462,75.47,40,1,1.88,PK,1624756199
61,provideniya,64.3833,-173.3,50.4,76,100,5.55,RU,1624756199
62,gamboma,-1.8764,15.8644,75.27,67,8,4.16,CG,1624756199
63,florianopolis,-27.6146,-48.5012,67.41,73,75,14.97,BR,1624756199
64,hilo,19.7297,-155.09,82.26,68,1,11.5,US,1624756200
65,ostersund,63.1792,14.6357,53.62,82,90,13.8,SE,1624756200
66,codrington,-38.2667,141.9667,55.83,76,89,5.1,AU,1624756200
67,nemuro,43.3236,145.575,53.6,95,76,9.78,JP,1624756201
68,camana,-16.6228,-72.7111,60.87,88,71,8.46,PE,1624756201
69,mahebourg,-20.4081,57.7,71.26,82,5,7.49,MU,1624756202
70,victoria,22.2855,114.1577,87.85,88,96,5.01,HK,1624756021
71,havelock,34.8791,-76.9013,79.95,89,75,5.53,US,1624756202
72,saint-philippe,-21.3585,55.7679,71.15,80,8,6.85,RE,1624756204
73,tuktoyaktuk,69.4541,-133.0374,51.17,61,32,9.44,CA,1624756204
74,paranavai,-23.0731,-52.4653,68.05,55,0,6.04,BR,1624756204
75,amurzet,47.6967,131.0981,80.37,55,8,1.52,RU,1624756205
76,areni,39.7191,45.1799,82.76,32,91,4.63,AM,1624756205
77,sisimiut,66.9395,-53.6735,41.54,92,100,4.43,GL,1624756009
78,beisfjord,68.3751,17.5988,54.05,78,11,3.71,NO,1624756205
79,malpe,13.35,74.7167,74.5,82,100,3.24,IN,1624756206
80,dali,25.7,100.1833,68.5,84,100,4.14,CN,1624756206
81,ilo,-17.6394,-71.3375,60.3,84,56,7.65,PE,1624756206
82,taganak,6.0833,118.3,82.0,76,51,5.77,PH,1624756207
83,bandarbeyla,9.4942,50.8122,77.79,72,71,24.81,SO,1624755615
84,pilar,-9.5972,-35.9567,67.93,87,45,2.48,BR,1624755993
85,alihe,50.5667,123.7167,74.3,65,67,3.85,CN,1624755950
86,griffith,41.5284,-87.4237,76.48,95,40,3.0,US,1624756207
87,carnarvon,-24.8667,113.6333,59.07,60,7,11.5,AU,1624756208
88,ust-kut,56.7938,105.7672,63.95,57,100,3.22,RU,1624756208
89,santa cruz,-17.8,-63.1667,72.86,94,75,2.3,BO,1624756039
90,tuatapere,-46.1333,167.6833,51.82,85,91,2.71,NZ,1624755623
91,zarnovica,48.4812,18.7157,60.28,95,3,3.91,SK,1624756209
92,komsomolskiy,40.4272,71.7189,69.22,37,4,6.91,UZ,1624756209
93,dixon,38.4455,-121.8233,104.79,29,1,10.36,US,1624756209
94,bure,10.7,37.0667,55.27,91,43,4.18,ET,1624756210
95,mae hong son,19.3003,97.9685,75.88,98,100,0.63,TH,1624756210
96,butaritari,3.0707,172.7902,82.92,76,100,14.58,KI,1624756211
97,dodge city,37.7528,-100.0171,79.25,57,75,8.01,US,1624756211
98,tiksi,71.6872,128.8694,35.64,85,100,7.74,RU,1624756009
99,hofn,64.2539,-15.2082,51.87,65,100,2.53,IS,1624755891
100,awbari,26.5921,12.7805,86.34,14,0,9.82,LY,1624756212
101,dikson,73.5069,80.5464,33.94,80,29,1.95,RU,1624756212
102,ostrovnoy,68.0531,39.5131,45.93,78,82,1.41,RU,1624756212
103,bonavista,48.6499,-53.1147,58.64,84,100,15.52,CA,1624755899
104,zhezkazgan,47.8043,67.7144,69.64,32,78,14.58,KZ,1624756213
105,bredasdorp,-34.5322,20.0403,48.27,79,36,5.7,ZA,1624756213
106,carauari,-4.8828,-66.8958,78.37,76,100,2.21,BR,1624756213
107,karratha,-20.7377,116.8463,67.48,55,87,7.83,AU,1624755985
108,birao,10.2849,22.7882,77.11,64,11,5.08,CF,1624756214
109,jamestown,42.097,-79.2353,80.19,70,1,5.99,US,1624755931
110,north platte,41.1239,-100.7654,78.69,42,1,1.01,US,1624756214
111,nanortalik,60.1432,-45.2371,46.44,89,100,4.05,GL,1624756215
112,khani,41.9563,42.9566,62.17,95,25,2.82,GE,1624756215
113,khatanga,71.9667,102.5,51.6,45,98,10.69,RU,1624756215
114,buraydah,26.326,43.975,88.14,10,0,8.12,SA,1624756216
115,waterfoot,53.6929,-2.2525,56.8,92,42,1.01,GB,1624756216
116,bethel,41.3712,-73.414,77.72,84,40,8.05,US,1624756216
117,zephyrhills,28.2336,-82.1812,81.72,83,1,12.15,US,1624756217
118,cabedelo,-6.9811,-34.8339,72.27,77,71,14.99,BR,1624756217
119,marawi,7.9986,124.2928,76.48,75,100,1.14,PH,1624756217
120,manokwari,-0.8667,134.0833,82.49,72,92,6.78,ID,1624756218
121,blairmore,49.6,-114.4353,79.92,40,4,6.13,CA,1624756218
122,brigantine,39.4101,-74.3646,78.49,87,1,11.5,US,1624756218
123,nikolskoye,59.7035,30.7861,64.29,94,20,2.39,RU,1624756218
124,cayenne,4.9333,-52.3333,79.09,86,0,1.01,GF,1624756219
125,balancan,17.8,-91.5333,80.87,76,100,4.61,MX,1624756219
126,chukhloma,58.7525,42.6825,64.65,95,70,3.78,RU,1624756220
127,panaba,21.2833,-88.2667,78.51,79,100,6.11,MX,1624756220
128,luis correia,-2.8792,-41.6669,76.73,83,5,4.05,BR,1624756220
129,cartagena del chaira,1.3349,-74.8429,72.48,96,100,0.72,CO,1624756221
130,mattru,7.6244,-11.8332,73.02,98,100,1.36,SL,1624756221
131,coihaique,-45.5752,-72.0662,31.95,86,0,5.75,CL,1624756221
132,bambous virieux,-20.3428,57.7575,71.22,82,8,6.53,MU,1624756013
133,chokurdakh,70.6333,147.9167,77.49,35,23,7.16,RU,1624756016
134,esperance,-33.8667,121.9,54.36,57,0,19.06,AU,1624756222
135,chuy,-33.6971,-53.4616,55.74,96,100,7.67,UY,1624756222
136,clyde river,70.4692,-68.5914,34.03,93,90,18.41,CA,1624756222
137,longyearbyen,78.2186,15.6401,35.44,100,75,4.61,SJ,1624756223
138,kruisfontein,-34.0033,24.7314,48.88,85,100,5.75,ZA,1624756223
139,airai,-8.9266,125.4092,68.16,63,61,4.99,TL,1624756004
140,san buenaventura,27.0833,-101.5333,98.01,22,4,18.14,MX,1624756223
141,sindor,62.8629,51.8905,60.67,77,56,3.33,RU,1624756224
142,hillsborough,37.5741,-122.3794,88.32,78,20,23.0,US,1624756139
143,acarau,-2.8856,-40.12,76.93,79,5,5.28,BR,1624756224
144,pestravka,52.405,49.9583,68.61,75,2,5.5,RU,1624756225
145,fort nelson,58.8053,-122.7002,86.59,28,18,4.5,CA,1624756225
146,tezu,27.9167,96.1667,76.82,99,100,1.72,IN,1624756225
147,catu,-12.3531,-38.3789,76.12,95,8,2.35,BR,1624756226
148,tazovskiy,67.4667,78.7,44.26,62,0,13.73,RU,1624756226
149,berdigestyakh,62.0989,126.6992,78.84,36,76,3.11,RU,1624756014
150,hoquiam,46.9809,-123.8893,103.06,60,1,11.5,US,1624756008
151,ucluelet,48.9329,-125.5528,102.04,63,1,4.43,CA,1624756227
152,vostok,46.4856,135.8833,76.69,44,100,4.45,RU,1624756227
153,hervey bay,-25.2986,152.8535,60.04,92,100,4.0,AU,1624756227
154,mlonggo,-6.5333,110.7,82.29,74,10,2.28,ID,1624755911
155,olinda,-8.0089,-34.8553,71.33,73,0,9.22,BR,1624755767
156,kodiak,57.79,-152.4072,54.91,76,75,12.66,US,1624756228
157,santarem,-2.4431,-54.7083,75.33,100,0,0.0,BR,1624756228
158,sistranda,63.7256,8.834,53.91,81,100,21.07,NO,1624756229
159,lebu,-37.6167,-73.65,44.38,78,1,13.56,CL,1624756229
160,ancud,-41.8697,-73.8203,39.22,88,13,5.5,CL,1624756230
161,river falls,44.8614,-92.6238,71.69,97,100,2.89,US,1624756230
162,pangnirtung,66.1451,-65.7125,36.16,99,100,1.61,CA,1624756230
163,lompoc,34.6391,-120.4579,87.21,74,1,14.97,US,1624756186
164,lebedyn,50.5852,34.4849,65.8,90,77,10.76,UA,1624756231
165,isangel,-19.55,169.2667,77.76,61,19,15.17,VU,1624756231
166,leningradskiy,69.3833,178.4167,55.08,42,100,3.24,RU,1624755931
167,sitka,57.0531,-135.33,60.69,82,75,4.61,US,1624755908
168,oranjestad,12.524,-70.027,81.91,86,80,5.01,AW,1624755849
169,ust-ilimsk,58.0006,102.6619,63.52,57,0,8.3,RU,1624756232
170,palmeira das missoes,-27.8994,-53.3136,61.95,97,100,10.87,BR,1624756232
171,flagstaff,35.1981,-111.6513,79.75,22,40,5.99,US,1624756233
172,san luis,-33.295,-66.3356,37.02,57,1,7.16,AR,1624756233
173,rengali,21.6333,84.05,82.45,75,86,2.08,IN,1624756233
174,kalmar,56.6616,16.3616,62.96,100,20,3.44,SE,1624756234
175,uaua,-9.8414,-39.4817,65.97,85,0,10.74,BR,1624756234
176,klaksvik,62.2266,-6.589,47.32,86,55,6.4,FO,1624756234
177,labuhan,-6.8844,112.2051,80.47,81,71,5.48,ID,1624756235
178,iqaluit,63.7506,-68.5145,36.7,74,100,5.99,CA,1624756235
179,cabo san lucas,22.8909,-109.9124,96.8,56,1,8.99,MX,1624755955
180,vila franca do campo,37.7167,-25.4333,66.61,91,99,6.87,PT,1624756236
181,augustow,53.8432,22.9798,55.54,91,83,6.17,PL,1624756236
182,ahipara,-35.1667,173.1667,62.42,83,100,15.79,NZ,1624755960
183,ilulissat,69.2167,-51.1,42.82,81,51,5.75,GL,1624756236
184,atar,20.5169,-13.0499,91.49,17,5,5.35,MR,1624756237
185,namibe,-15.1961,12.1522,67.46,71,13,6.51,AO,1624756237
186,roma,43.2128,-75.4557,84.06,60,1,0.0,US,1624756014
187,florida,28.7505,-82.5001,81.0,89,1,3.44,US,1624756237
188,lubao,14.9167,120.55,88.14,68,59,3.49,PH,1624756238
189,nouadhibou,20.931,-17.0347,68.52,78,0,21.97,MR,1624756238
190,oussouye,12.485,-16.5469,75.47,85,100,5.21,SN,1624756238
191,palmer,42.1584,-72.3287,77.22,72,75,3.0,US,1624756239
192,pisco,-13.7,-76.2167,63.01,82,20,12.66,PE,1624756239
193,mao,39.8885,4.2658,70.36,83,0,3.44,ES,1624755644
194,opuwo,-18.0607,13.84,55.72,40,34,0.92,NA,1624756022
195,pundaguitan,6.3711,126.1689,82.44,70,100,0.83,PH,1624756240
196,san jose,37.3394,-121.895,88.9,53,20,11.5,US,1624756016
197,kamina,-8.7386,24.9906,59.09,45,0,3.36,CD,1624755943
198,port blair,11.6667,92.75,81.46,78,100,7.05,IN,1624756240
199,baiyin,36.5583,104.2081,73.45,44,79,2.19,CN,1624756241
200,saint george,37.1041,-113.5841,102.79,12,1,3.0,US,1624756241
201,henties bay,-22.116,14.2845,58.62,76,0,2.48,NA,1624756241
202,porto seguro,-16.4497,-39.0647,68.52,77,75,3.44,BR,1624756242
203,russell,32.3502,-85.1999,82.0,87,1,0.0,US,1624755942
204,severo-kurilsk,50.6789,156.125,46.51,89,68,14.76,RU,1624756242
205,qaanaaq,77.484,-69.3632,39.2,77,30,2.95,GL,1624756242
206,cherskiy,68.75,161.3,75.87,32,100,7.81,RU,1624755997
207,tapes,-30.6733,-51.3958,61.05,99,100,3.6,BR,1624756243
208,omboue,-1.5746,9.2618,72.77,92,60,6.82,GA,1624756243
209,tahta,26.7693,31.5021,83.03,30,0,6.31,EG,1624756244
210,banka,24.8833,86.9167,83.62,76,60,9.33,IN,1624756244
211,tasiilaq,65.6145,-37.6368,41.16,67,50,5.66,GL,1624756244
212,chernolesskoye,44.7156,43.7133,72.59,87,100,9.44,RU,1624756244
213,houma,29.5958,-90.7195,84.99,76,1,6.91,US,1624756245
214,kahului,20.8947,-156.47,87.82,48,40,16.11,US,1624755957
215,bilasipara,26.232,90.2347,80.65,86,49,4.72,IN,1624756245
216,baiao,-2.7906,-49.6717,74.1,87,76,3.06,BR,1624756246
217,petropavlovsk-kamchatskiy,53.0452,158.6483,68.59,37,20,17.9,RU,1624756246
218,aklavik,68.2191,-135.0107,70.7,38,100,13.0,CA,1624756246
219,portland,45.5234,-122.6762,108.0,24,1,1.99,US,1624756205
220,northfield,44.4583,-93.1616,71.46,91,90,1.99,US,1624756247
221,los llanos de aridane,28.6585,-17.9182,65.95,87,90,11.5,ES,1624755841
222,vila velha,-20.3297,-40.2925,66.15,94,0,2.3,BR,1624756022
223,narsaq,60.9167,-46.05,55.62,93,100,2.42,GL,1624756247
224,moron,-34.6534,-58.6198,45.97,96,100,5.01,AR,1624756248
225,kailua,21.4022,-157.7394,84.18,61,40,11.5,US,1624756248
226,muros,42.7762,-9.0603,60.24,86,100,8.93,ES,1624755846
227,indian head,38.6001,-77.1622,82.81,75,1,4.61,US,1624756248
228,san antonio,29.4241,-98.4936,90.48,57,1,1.99,US,1624755993
229,the valley,18.217,-63.0578,81.1,76,100,20.2,AI,1624756249
230,tam ky,15.5667,108.4833,93.18,55,48,4.14,VN,1624756249
231,tonj,7.2737,28.6822,76.28,71,78,3.6,SS,1624756250
232,akyab,20.15,92.9,81.25,85,99,8.28,MM,1624756250
233,khao yoi,13.2403,99.8243,86.9,64,46,1.99,TH,1624756250
234,manadhoo,5.7667,73.3833,81.55,74,76,12.64,MV,1624755926
235,saldanha,-33.0117,17.9442,54.01,82,14,9.71,ZA,1624756251
236,grand gaube,-20.0064,57.6608,71.38,83,2,1.99,MU,1624755930
237,numata,36.6333,139.05,77.38,76,100,3.71,JP,1624756252
238,arraial do cabo,-22.9661,-42.0278,71.38,78,100,22.68,BR,1624756010
239,beaufort,5.3473,115.7455,83.71,72,69,2.01,MY,1624756252
240,kinablangan,7.6947,126.5503,83.93,65,100,1.77,PH,1624756253
241,port hardy,50.6996,-127.4199,74.16,65,17,10.71,CA,1624756253
242,gravdal,68.1214,13.5031,49.73,91,100,31.74,NO,1624756253
243,okhotsk,59.3833,143.3,62.8,68,16,8.14,RU,1624756254
244,acapulco,16.8634,-99.8901,76.82,88,90,4.61,MX,1624756021
245,cururupu,-1.8283,-44.8683,72.63,94,4,2.13,BR,1624756254
246,veinticinco de mayo,-35.4323,-60.1727,42.06,80,80,5.99,AR,1624756255
247,barvinkove,48.9097,37.0205,67.6,92,100,8.12,UA,1624756255
248,san ramon,37.7799,-121.978,95.58,59,1,11.5,US,1624756255
249,saint-georges,12.0564,-61.7485,80.28,78,75,24.16,GD,1624756256
250,kiunga,-6.1219,141.2906,76.44,97,99,2.77,PG,1624756256
251,san cristobal,7.7669,-72.225,66.16,97,100,2.01,VE,1624755898
252,borogontsy,62.6683,131.1683,82.67,30,60,5.93,RU,1624756256
253,tilichiki,60.4667,166.1,54.72,76,53,9.75,RU,1624755945
254,saint-augustin,51.226,-58.6502,56.21,98,100,13.24,CA,1624756257
255,goderich,43.7501,-81.7165,77.92,95,100,23.13,CA,1624755986
256,coquimbo,-29.9533,-71.3436,51.53,87,20,0.0,CL,1624756257
257,zhigansk,66.7697,123.3711,71.31,56,56,5.79,RU,1624756257
258,tres arroyos,-38.3739,-60.2798,44.33,87,97,12.08,AR,1624755888
259,caracollo,-14.9165,-70.6603,44.38,44,67,4.25,PE,1624756258
260,gboko,7.3179,8.9951,73.35,91,100,4.43,NG,1624756259
261,norman wells,65.282,-126.8329,82.81,29,80,10.89,CA,1624756259
262,mozarlandia,-14.7447,-50.5706,72.84,25,0,6.15,BR,1624756259
263,tura,25.5198,90.2201,76.44,95,50,5.37,IN,1624755852
264,antofagasta,-23.65,-70.4,58.28,81,100,6.33,CL,1624755961
265,aguilas,37.4063,-1.5829,70.05,69,0,4.21,ES,1624756260
266,georgetown,5.4112,100.3354,82.89,81,20,0.0,MY,1624756010
267,makakilo city,21.3469,-158.0858,82.72,57,75,8.05,US,1624756260
268,kununurra,-15.7667,128.7333,71.58,33,100,12.66,AU,1624756261
269,marzuq,14.4,46.4667,73.67,57,83,8.68,YE,1624755936
270,marystown,47.1666,-55.1483,54.48,75,99,6.58,CA,1624756261
271,mercedes,-34.6515,-59.4307,44.04,90,100,8.34,AR,1624756261
272,walvis bay,-22.9575,14.5053,60.28,64,0,4.5,NA,1624756262
273,kawalu,-7.3817,108.2082,76.69,89,42,0.85,ID,1624756262
274,flic en flac,-20.2742,57.3631,71.53,84,9,7.34,MU,1624756262
275,holme,56.1138,10.1725,58.64,87,10,5.59,DK,1624756263
276,valparaiso,-33.0393,-71.6273,50.47,67,0,6.91,CL,1624756263
277,gat,31.61,34.7642,76.41,77,0,1.92,IL,1624756202
278,kamaishi,39.2667,141.8833,73.2,73,81,5.57,JP,1624756264
279,corowa,-36.0333,146.3833,48.52,96,86,3.42,AU,1624756264
280,beloretsk,53.9631,58.3981,67.01,94,4,2.95,RU,1624756264
281,kabalo,-6.05,26.9167,69.98,44,6,4.68,CD,1624756265
282,mandera,3.9366,41.867,74.43,63,41,10.18,KE,1624756265
283,fortuna,40.5982,-124.1573,69.93,74,1,1.99,US,1624756265
284,kodinsk,58.6881,99.1844,55.6,70,100,10.45,RU,1624756266
285,plouzane,48.3833,-4.6167,55.58,91,90,4.61,FR,1624755844
286,yurgamysh,55.3714,64.4656,62.65,89,2,3.8,RU,1624756266
287,katobu,-4.9408,122.5276,79.5,89,84,8.21,ID,1624756266
288,saravan,39.7196,45.6483,74.05,39,98,9.35,AM,1624756267
289,alugan,12.2188,125.4808,85.46,69,95,4.63,PH,1624756267
290,kananga,-5.8958,22.4178,68.22,40,0,3.49,CD,1624756267
291,husavik,66.0449,-17.3389,50.9,65,64,4.18,IS,1624756268
292,thompson,55.7435,-97.8558,73.81,31,10,5.84,CA,1624756268
293,nyurba,63.2842,118.3319,76.28,59,82,2.33,RU,1624756269
294,souillac,-20.5167,57.5167,71.37,86,4,8.12,MU,1624756269
295,majene,-3.5403,118.9707,81.61,74,49,7.94,ID,1624756269
296,haftoni,38.7632,48.7622,78.24,37,6,3.89,AZ,1624756270
297,bereda,43.2686,-7.5406,56.57,100,100,3.69,ES,1624756270
298,pevek,69.7008,170.3133,43.14,60,100,7.63,RU,1624756270
299,durango,24.8333,-104.8333,82.49,19,11,16.37,MX,1624756128
300,port augusta,-32.5,137.7667,57.7,56,0,6.85,AU,1624756271
301,puerto del rosario,28.5004,-13.8627,69.55,78,9,10.36,ES,1624756271
302,suksun,57.1431,57.3949,61.0,91,13,3.67,RU,1624756272
303,abengourou,6.7297,-3.4964,71.94,95,100,1.63,CI,1624756272
304,luau,-10.7073,22.2247,57.52,51,5,4.43,AO,1624756272
305,coromandel,-18.4733,-47.2003,59.25,53,4,4.72,BR,1624756272
306,mehamn,71.0357,27.8492,46.35,93,75,0.0,NO,1624756273
307,adtuyon,7.8144,124.8557,76.87,78,89,1.05,PH,1624756273
308,mayo,38.8876,-76.5119,82.08,86,1,8.01,US,1624755996
309,pocinhos,-7.0767,-36.0611,63.57,84,76,10.04,BR,1624756274
310,caete,-19.88,-43.6697,61.83,88,2,2.19,BR,1624756274
311,lagoa,39.05,-27.9833,66.88,76,2,10.27,PT,1624756274
312,srednekolymsk,67.45,153.6833,82.83,23,84,4.7,RU,1624756275
313,maniitsoq,65.4167,-52.9,42.49,93,100,5.55,GL,1624756275
314,sao filipe,14.8961,-24.4956,75.85,85,23,7.47,CV,1624756275
315,andenes,69.3143,16.1194,48.18,81,90,11.5,NO,1624755790
316,laguna,38.421,-121.4238,104.92,33,1,5.99,US,1624756276
317,thinadhoo,0.5333,72.9333,81.9,74,93,8.93,MV,1624756276
318,seymchan,62.8833,152.4333,78.33,27,100,3.38,RU,1624755961
319,deniliquin,-35.5333,144.9667,48.99,70,52,5.82,AU,1624756277
320,fukue,32.6881,128.8419,71.4,89,100,7.05,JP,1624756277
321,balkhash,46.844,74.9804,62.28,51,0,11.43,KZ,1624756277
322,luderitz,-26.6481,15.1594,56.8,44,0,4.36,NA,1624756278
323,brownwood,31.7093,-98.9912,92.52,45,9,16.87,US,1624756244
324,alofi,-19.0595,-169.9187,75.07,70,8,27.16,NU,1624756278
325,bredy,52.4153,60.3411,68.09,78,0,7.02,RU,1624756278
326,lata,40.1629,-8.3327,62.04,99,52,2.24,PT,1624755988
327,uvat,59.1433,68.8953,59.31,84,100,2.1,RU,1624756279
328,sao joao da barra,-21.6403,-41.0511,70.95,74,12,12.77,BR,1624756279
329,grindavik,63.8424,-22.4338,46.87,100,90,14.97,IS,1624756280
330,sobolevo,54.4299,31.8996,61.77,91,91,4.0,RU,1624756280
331,namatanai,-3.6667,152.4333,85.1,66,50,3.94,PG,1624756280
332,bara,10.3744,10.7288,72.68,87,100,13.29,NG,1624755856
333,marsh harbour,26.5412,-77.0636,81.14,72,29,17.56,BS,1624756281
334,buala,-8.145,159.5921,83.89,72,100,7.61,SB,1624755987
335,cheremukhovo,60.3484,59.9851,58.89,87,64,1.07,RU,1624756281
336,geraldton,-28.7667,114.6,52.21,66,18,21.85,AU,1624756281
337,moranbah,-22.0016,148.0466,54.63,70,99,16.91,AU,1624756282
338,karlskrona,56.1616,15.5866,59.45,92,20,9.31,SE,1624756282
339,broken hill,-31.95,141.4333,52.68,54,0,2.04,AU,1624755844
340,winton,37.3894,-120.6133,104.34,25,1,9.22,US,1624756283
341,north bend,43.4065,-124.2243,86.23,77,1,11.5,US,1624756283
342,codo,-4.4553,-43.8856,74.46,78,39,2.8,BR,1624756283
343,yeniseysk,58.4497,92.1703,54.5,88,95,5.68,RU,1624756284
344,flinders,-34.5833,150.8552,63.05,51,0,5.99,AU,1624756284
345,hobyo,5.3505,48.5268,76.93,86,99,23.6,SO,1624756284
346,niquero,20.0431,-77.5828,79.57,76,33,4.0,CU,1624756285
347,chizhou,30.6578,117.4831,76.28,98,100,2.86,CN,1624756285
348,zapolyarnyy,69.4154,30.8136,47.48,85,100,9.71,RU,1624756285
349,vertientes,21.2594,-78.1464,79.41,89,8,9.17,CU,1624756286
350,santa maria,-29.6842,-53.8069,57.27,98,100,10.56,BR,1624756286
351,lajoskomarom,46.842,18.3376,66.47,73,54,4.65,HU,1624756286
352,tshane,-24.0196,21.8684,47.53,46,0,7.92,BW,1624756287
353,sault sainte marie,46.5168,-84.3333,70.09,83,90,0.0,CA,1624756287
354,bombay,19.0144,72.8479,84.18,84,40,8.05,IN,1624756009
355,wagar,16.1525,36.2032,83.46,44,28,14.58,SD,1624756287
356,miri,4.4148,114.0089,80.51,85,59,3.36,MY,1624756288
357,albacete,38.8333,-2.0,69.19,63,0,8.05,ES,1624756288
358,kavieng,-2.5744,150.7967,84.34,69,99,6.82,PG,1624756288
359,gigmoto,13.7796,124.39,86.22,67,98,5.12,PH,1624756289
360,goundam,16.4145,-3.6708,92.89,26,95,8.75,ML,1624756289
361,brumado,-14.2036,-41.6653,69.01,73,78,7.94,BR,1624756289
362,aripuana,-9.1667,-60.6333,75.9,73,55,1.74,BR,1624756290
363,sola,-13.8833,167.55,79.83,70,44,21.34,VU,1624756290
364,wanning,18.8003,110.3967,86.5,74,100,13.06,CN,1624756290
365,ponta do sol,32.6667,-17.1,66.83,64,19,4.12,PT,1624756291
366,najran,17.4924,44.1277,75.31,13,100,1.68,SA,1624756020
367,hamilton,39.1834,-84.5333,82.49,66,1,1.01,US,1624756231
368,nome,64.5011,-165.4064,59.16,62,1,11.5,US,1624756103
369,prajeni,47.5167,27.0167,68.68,86,75,12.82,RO,1624756291
370,port hawkesbury,45.6169,-61.3485,68.92,94,100,4.0,CA,1624756001
371,borgarnes,64.5383,-21.9206,48.81,94,86,5.93,IS,1624756292
372,tessalit,20.1986,1.0114,92.75,8,0,8.1,ML,1624756292
373,egvekinot,66.3167,-179.1667,46.42,52,21,6.17,RU,1624756292
374,saint-joseph,-21.3667,55.6167,70.16,79,4,5.68,RE,1624756293
375,brae,60.3964,-1.353,49.91,93,63,15.43,GB,1624756293
376,da nang,16.0678,108.2208,93.18,59,20,3.44,VN,1624756293
377,bilma,18.6853,12.9164,88.95,11,6,11.25,NE,1624756294
378,sur,22.5667,59.5289,83.26,61,0,11.52,OM,1624756294
379,ikalamavony,-21.15,46.5833,54.61,71,0,4.29,MG,1624756294
380,marihatag,8.7936,126.2969,83.48,72,90,2.75,PH,1624756295
381,marienburg,54.0359,19.0266,57.88,92,0,4.43,PL,1624756295
382,perote,19.5667,-97.2333,57.02,86,100,4.54,MX,1624756296
383,upernavik,72.7868,-56.1549,37.54,95,100,16.44,GL,1624756023
384,kudahuvadhoo,2.6708,72.8944,82.15,72,15,9.06,MV,1624756296
385,strezhevoy,60.7333,77.5889,55.38,52,43,2.95,RU,1624756296
386,yambio,4.5721,28.3955,69.94,72,48,4.12,SS,1624756297
387,deputatskiy,69.3,139.9,80.17,25,95,9.95,RU,1624756297
388,ixtapa,20.7,-105.2,82.22,89,90,2.3,MX,1624756298
389,robertsport,6.7533,-11.3686,78.58,82,100,6.49,LR,1624756298
390,sibenik,43.7272,15.9058,73.06,61,0,5.57,HR,1624756298
391,constanza,47.6603,9.1758,64.33,91,16,3.0,DE,1624756299
392,hualmay,-11.0964,-77.6139,62.64,84,44,10.67,PE,1624755836
393,churachandpur,24.3333,93.6667,70.79,93,100,2.55,IN,1624756299
394,gloucester,51.8657,-2.2431,59.72,86,52,1.99,GB,1624756299
395,dakoro,14.5106,6.765,92.34,31,5,11.99,NE,1624756300
396,tautira,-17.7333,-149.15,84.22,70,0,3.29,PF,1624755715
397,kyabram,-36.3167,145.05,48.87,81,99,2.71,AU,1624756300
398,charyshskoye,51.3978,83.5598,52.57,87,94,2.62,RU,1624756300
399,khandyga,62.6667,135.6,82.6,36,56,1.79,RU,1624756301
400,manaure,11.7751,-72.4445,82.09,73,98,9.84,CO,1624756301
401,gualeguay,-33.1416,-59.3097,47.5,78,97,13.4,AR,1624756301
402,izumo,35.3667,132.7667,77.4,67,89,2.71,JP,1624756302
403,jalu,29.0331,21.5482,85.93,29,0,8.61,LY,1624756302
404,pacific grove,36.6177,-121.9166,91.15,83,20,4.0,US,1624756303
405,banff,51.1762,-115.5698,80.58,27,8,3.22,CA,1624756225
406,verkhneye kazanishche,42.7355,47.1378,67.06,48,100,7.36,RU,1624756303
407,bam,29.106,58.357,82.24,15,0,6.49,IR,1624756304
408,tuy hoa,13.0833,109.3,87.46,60,87,6.91,VN,1624756304
409,lavrentiya,65.5833,-171.0,46.83,83,77,5.95,RU,1624756304
410,aguachica,8.3084,-73.6166,75.25,92,84,1.72,CO,1624756305
411,ballina,-28.8667,153.5667,60.98,68,60,8.63,AU,1624756305
412,san vicente de canete,-13.0751,-76.3835,62.74,83,87,2.75,PE,1624756305
413,sokolo,14.7328,-6.1219,90.64,35,89,2.19,ML,1624756306
414,ryotsu,38.0833,138.4333,73.98,71,86,5.79,JP,1624756306
415,cabra,37.4725,-4.4421,72.9,74,6,3.18,ES,1624756307
416,waingapu,-9.6567,120.2641,83.28,70,67,10.31,ID,1624756034
417,sambava,-14.2667,50.1667,68.09,88,11,9.33,MG,1624756307
418,lithakia,37.7167,20.8333,67.37,63,56,3.47,GR,1624756308
419,sioux lookout,50.1001,-91.917,72.14,57,86,4.59,CA,1624755990
420,amarillo,35.222,-101.8313,80.01,61,40,1.99,US,1624756279
421,dingle,10.9995,122.6711,82.94,76,100,4.52,PH,1624756309
422,faya,18.3851,42.4509,68.52,17,72,4.59,SA,1624756309
423,turhal,40.3875,36.0811,58.98,93,0,0.49,TR,1624756309
424,chulman,56.8479,124.9104,70.48,61,17,6.62,RU,1624756310
425,chabahar,25.2919,60.643,82.94,83,7,12.46,IR,1624755852
426,constitucion,-35.3333,-72.4167,43.5,75,0,7.43,CL,1624756256
427,garhakota,23.7667,79.15,83.23,67,30,0.96,IN,1624756310
428,mbamba,9.9833,13.1,69.51,89,100,3.33,NG,1624756311
429,te anau,-45.4167,167.7167,49.48,88,100,5.97,NZ,1624755855
430,asau,46.4333,26.4,65.32,100,5,3.24,RO,1624756311
431,san policarpo,12.1791,125.5072,85.26,70,98,4.32,PH,1624755945
432,akdepe,42.0551,59.3788,80.69,19,3,6.78,TM,1624755957
433,tual,-5.6667,132.75,80.94,75,37,19.39,ID,1624756312
434,george,-33.963,22.4617,50.43,78,11,4.54,ZA,1624756312
435,gaya,24.7833,85.0,81.63,80,70,3.24,IN,1624756312
436,qui nhon,13.7667,109.2333,87.66,59,45,3.56,VN,1624756313
437,usogorsk,63.4106,48.6872,61.2,79,100,3.69,RU,1624756313
438,shakawe,-18.3667,21.85,51.78,43,9,2.06,BW,1624756313
439,ames,42.0347,-93.6199,71.85,86,90,10.36,US,1624756314
440,batarci,48.0333,23.1667,61.29,91,0,3.6,RO,1624756314
441,yatou,37.15,122.3833,75.45,79,100,13.18,CN,1624756314
442,halifax,44.6453,-63.5724,67.89,92,100,4.0,CA,1624756248
443,bonthe,7.5264,-12.505,74.48,94,100,4.65,SL,1624756315
444,batagay-alyta,67.8006,130.4114,79.47,27,6,12.53,RU,1624756315
445,batticaloa,7.7102,81.6924,80.11,73,100,4.0,LK,1624756316
446,kungurtug,50.5994,97.5228,53.64,74,100,1.99,RU,1624756316
447,matara,5.9485,80.5353,76.89,89,86,11.21,LK,1624756316
448,kushima,31.4583,131.2333,69.31,96,100,5.73,JP,1624756317
449,santa marta,11.2408,-74.199,83.98,77,100,1.99,CO,1624756307
450,afsin,38.2477,36.914,61.07,66,0,3.58,TR,1624756317
451,waipawa,-41.4122,175.5153,55.45,88,100,16.53,NZ,1624755960
452,osorno,-40.5667,-73.15,32.31,100,90,0.0,CL,1624756163
453,narasannapeta,18.4167,84.05,84.27,77,100,4.65,IN,1624756318
454,skeldon,5.8833,-57.1333,74.86,93,51,6.62,GY,1624756318
455,yeppoon,-23.1333,150.7333,58.78,88,100,9.71,AU,1624756318
456,westport,41.1415,-73.3579,78.58,88,1,1.99,US,1624756031
457,chaiyaphum,15.75,102.0,84.06,67,100,8.41,TH,1624756319
458,oranjemund,-28.55,16.4333,52.7,76,0,4.16,NA,1624756319
459,bozhou,33.8772,115.7703,82.45,70,66,4.41,CN,1624756319
460,svetlaya,46.5389,138.3297,61.07,87,99,8.55,RU,1624756320
461,atambua,-9.1061,124.8925,80.46,61,38,5.03,ID,1624756320
462,riyadh,24.6877,46.7219,90.36,9,0,7.65,SA,1624755677
463,prince rupert,54.3161,-130.3201,71.19,73,28,3.67,CA,1624755796
464,manta,-0.95,-80.7333,73.18,83,90,13.8,EC,1624756321
465,shingu,33.7333,135.9833,66.6,94,100,4.88,JP,1624756321
466,humberto de campos,-2.5983,-43.4611,73.99,90,5,1.7,BR,1624756272
467,biak,-0.9131,122.8766,78.6,79,100,2.13,ID,1624756322
468,xinzhou,38.4092,112.7333,79.39,49,6,2.42,CN,1624756322
469,skelleftea,64.7507,20.9528,53.96,63,100,3.44,SE,1624756322
470,talnakh,69.4865,88.3972,51.82,58,15,3.74,RU,1624756323
471,bathsheba,13.2167,-59.5167,81.21,65,20,19.57,BB,1624756323
472,rancho cucamonga,34.1064,-117.5931,108.45,40,1,5.01,US,1624756323
473,phibun mangsahan,15.2447,105.2291,89.11,75,74,9.37,TH,1624756324
474,shimoda,34.6667,138.95,72.1,86,100,7.94,JP,1624755959
475,udachnyy,66.4167,112.4,73.06,52,66,12.24,RU,1624755840
476,vila,42.0304,-8.1588,53.74,91,63,3.09,PT,1624756324
477,kelvington,52.1667,-103.5343,66.31,70,100,12.12,CA,1624756324
478,huzhou,30.8703,120.0933,74.93,98,100,2.26,CN,1624756137
479,alice springs,-23.7,133.8833,49.55,66,5,16.11,AU,1624755915
480,ozernovskiy,51.5,156.5167,43.81,98,100,5.91,RU,1624756325
481,maryborough,-25.5333,152.7,56.1,78,100,6.69,AU,1624756325
482,tianpeng,30.9866,103.9393,78.64,81,100,1.36,CN,1624756326
483,salme,28.0369,85.0942,64.69,80,98,1.63,NP,1624756326
484,tarakan,3.3,117.6333,81.9,89,40,3.44,ID,1624756016
485,bad hofgastein,47.1667,13.1,58.59,97,50,1.01,AT,1624756326
486,sechura,-5.5569,-80.8222,68.68,74,12,14.85,PE,1624756327
487,neuquen,-38.9516,-68.0591,35.49,75,0,0.0,AR,1624756327
488,tateyama,34.9833,139.8667,77.05,80,100,6.31,JP,1624756327
489,kushiro,42.975,144.3747,67.86,78,12,4.72,JP,1624756328
490,grabovo,53.3875,45.064,63.75,90,23,1.57,RU,1624756328
491,namyslow,51.0759,17.7228,64.58,87,66,3.78,PL,1624756329
492,sfantu gheorghe,45.8667,25.7833,64.27,95,7,0.63,RO,1624756329
493,demmin,53.9076,13.0314,60.01,90,26,3.18,DE,1624756329
494,urumqi,43.801,87.6005,61.75,48,0,11.18,CN,1624755618
495,sabinas,27.85,-101.1167,96.39,23,3,22.15,MX,1624756207
496,inirida,3.8653,-67.9239,73.78,96,78,1.48,CO,1624756330
497,melendugno,40.2747,18.3368,77.05,73,22,9.4,IT,1624756330
498,portales,34.1862,-103.3344,70.11,39,14,12.86,US,1624756217
499,aksu,41.1231,80.2644,77.16,28,0,4.81,CN,1624756330
500,luba,3.4568,8.5547,78.24,85,100,5.21,GQ,1624756331
501,shenjiamen,29.9576,122.298,73.26,98,100,5.3,CN,1624755845
502,cockburn town,21.4612,-71.1419,80.78,76,0,15.59,TC,1624756331
503,bosaso,11.2842,49.1816,91.06,38,100,24.34,SO,1624755752
504,vanimo,-2.6741,141.3028,83.53,70,46,6.93,PG,1624756332
505,viedma,-40.8135,-62.9967,46.72,68,100,19.28,AR,1624755904
506,pontianak,-0.0333,109.3333,78.78,94,40,4.61,ID,1624756332
507,praia,14.9215,-23.5087,77.54,78,75,11.5,CV,1624756333
508,bang saphan,11.2126,99.5117,84.94,72,12,3.76,TH,1624756149
509,mancio lima,-7.6142,-72.8958,77.31,73,78,0.81,BR,1624756333
510,northeim,51.7,10.0,61.95,88,11,1.7,DE,1624756333
511,isiro,2.7739,27.616,69.75,81,92,2.24,CD,1624755994
512,mvangue,2.9667,11.5167,66.24,99,100,2.75,CM,1624756334
513,farafangana,-22.8167,47.8333,64.2,89,4,6.96,MG,1624756334
514,siedlce,52.1677,22.2901,58.57,93,42,5.86,PL,1624756334
515,belaya gora,68.5333,146.4167,87.15,21,10,10.94,RU,1624756335
516,emerald,-23.5333,148.1667,59.34,50,0,17.49,AU,1624756335
517,itoman,26.1247,127.6694,81.37,91,75,3.44,JP,1624755953
518,hurricane,37.1753,-113.2899,100.87,15,91,10.09,US,1624756336
519,rocha,-34.4833,-54.3333,55.02,96,100,6.26,UY,1624756107
520,rockport,28.0206,-97.0544,87.03,75,1,5.99,US,1624756336
521,nishihara,26.1842,127.7558,80.65,92,75,9.22,JP,1624756336
522,bambanglipuro,-7.95,110.2833,64.6,83,24,3.2,ID,1624756337
523,nago,26.5881,127.9761,81.45,90,100,10.96,JP,1624756337
524,katsuura,35.1333,140.3,81.23,82,100,8.39,JP,1624756337
525,trinidad,-14.8333,-64.9,73.87,68,6,2.98,BO,1624756338
526,cerfontaine,50.17,4.4115,61.45,94,97,3.0,BE,1624756338
527,padang,-0.9492,100.3543,75.25,82,94,2.46,ID,1624755905
528,caravelas,-17.7125,-39.2481,68.13,65,1,3.09,BR,1624756338
529,porto novo,6.4965,2.6036,72.5,95,100,4.43,BJ,1624755905
530,raudeberg,61.9875,5.1352,52.2,76,88,14.0,NO,1624756339
531,bubaque,11.2833,-15.8333,77.34,80,100,4.54,GW,1624756339
532,oktyabrskiy,54.4815,53.471,65.95,85,12,3.96,RU,1624756340
533,tshikapa,-6.4167,20.8,69.39,43,0,2.39,CD,1624756340
534,nivala,63.9167,24.9667,54.68,75,100,3.31,FI,1624756340
535,lianran,24.9227,102.485,66.6,90,100,3.11,CN,1624756341
536,yamunanagar,30.1,77.2833,83.84,58,0,5.95,IN,1624756341
537,malmesbury,-33.4608,18.7271,55.54,85,23,4.47,ZA,1624756341
538,la quinta,33.6634,-116.31,115.84,7,0,1.01,US,1624756342
539,rabo de peixe,37.8,-25.5833,65.71,94,20,9.22,PT,1624756008
540,amazar,53.858,120.875,78.84,53,100,1.21,RU,1624756342
541,varenikovskaya,45.1209,37.6417,68.32,95,78,7.31,RU,1624756342
542,haines junction,60.7522,-137.5108,67.77,49,100,9.44,CA,1624756343
543,san patricio,28.017,-97.5169,85.87,73,5,14.74,US,1624756343
544,berlevag,70.8578,29.0864,46.4,93,100,7.85,NO,1624756344
545,necochea,-38.5473,-58.7368,45.03,80,90,12.21,AR,1624756344
546,batemans bay,-35.7167,150.1833,62.91,42,2,4.45,AU,1624756344
547,korla,41.7597,86.1469,79.61,15,6,8.03,CN,1624755927
548,coos bay,43.3665,-124.2179,86.31,76,1,11.5,US,1624756345
549,waddan,29.1614,16.139,86.45,20,0,4.74,LY,1624756345
550,atherton,53.5237,-2.4935,58.55,88,2,6.62,GB,1624756345
551,ouro fino,-22.2831,-46.3692,60.6,73,93,4.72,BR,1624756346
552,pochutla,15.7432,-96.4661,77.85,68,100,9.15,MX,1624756346
553,sungaipenuh,-2.0833,101.3833,66.13,91,100,2.64,ID,1624755907
554,port hedland,-20.3167,118.5667,68.05,42,90,12.66,AU,1624756346
555,shitkino,56.3703,98.3543,61.38,65,8,5.46,RU,1624756347
556,rumoi,43.9344,141.6428,71.08,65,100,2.48,JP,1624756347
557,macusani,-14.0833,-70.4333,33.57,88,40,3.2,PE,1624756348
558,verkhnyaya inta,65.9811,60.3094,56.68,82,100,4.52,RU,1624756348
559,melfi,40.9965,15.6514,65.41,57,0,4.25,IT,1624756004
560,salalah,17.0151,54.0924,80.69,89,75,4.61,OM,1624756349
561,cidreira,-30.1811,-50.2056,62.28,99,100,4.94,BR,1624756349
562,hasaki,35.7333,140.8333,81.18,77,100,7.74,JP,1624756349
563,yelizovo,53.1873,158.3805,69.94,37,20,17.9,RU,1624756349
564,markova,48.6758,24.4138,57.27,95,16,4.5,UA,1624756350
565,amapa,1.0,-52.0,71.62,93,91,2.08,BR,1624756350
566,baturaja,-4.1333,104.1667,75.92,93,28,2.53,ID,1624756351
567,miandrivazo,-19.5167,45.4667,62.31,57,0,0.67,MG,1624756351
568,dunmore east,52.1514,-6.9861,55.22,77,12,14.14,IE,1624756351
569,takoradi,4.8845,-1.7554,75.27,90,100,4.38,GH,1624756352
570,babu,24.4167,111.5167,83.84,80,100,4.68,CN,1624756352
571,quzhou,28.9594,118.8686,82.44,87,100,1.61,CN,1624756352
572,kimberley,-28.7323,24.7623,40.23,61,70,5.03,ZA,1624756353
573,sabha,27.0377,14.4283,88.23,16,0,13.94,LY,1624756353
574,hirado,33.3597,129.5531,74.35,80,92,1.88,JP,1624756354
575,kiruna,67.8557,20.2251,49.12,71,90,5.75,SE,1624756354
576,slonim,53.0867,25.3219,60.94,93,95,9.75,BY,1624756354
577,wilson,36.1501,-86.2833,83.59,63,1,8.05,US,1624756225
578,gamboula,4.1178,15.1393,66.36,97,96,2.3,CF,1624756276
579,kloulklubed,7.0419,134.2556,86.5,70,95,7.2,PW,1624755991
